,time_boot_ms,roll,pitch,yaw,Roll,Pitch,Yaw,Lat,Lon,vel,alt,time,nord,est,quota,NorthX,EastY
0,350.32,-0.1122232750058174,-0.0587150938808918,2.743896245956421,-100,4400,-11000,482787379,374427064,2460,457.52,350.48,0.0,0.0,282.4611765,-4524.265848279372,-4901.398394618581
1,350.8,-0.0346898213028907,-0.0627812892198562,2.670894384384156,0,4400,-11200,482788152,374425436,2481,459.17,350.98,8.58957599931557,2.0659621556076337,284.1307843,-251.50949950969596,-131.41111291802105
2,351.28,0.1181500628590583,-0.0962000042200088,2.634704351425171,-100,4400,-11400,482788683,374424364,2473,460.38,351.48,14.490047999577769,3.426405259213273,285.3603922,1245.523744004465,1412.4710297496442
3,351.76,0.0929493457078933,-0.0952493995428085,2.575531005859375,0,4400,-11800,482789494,374422783,2453,462.42,351.98,23.50187999988009,5.432889681602512,287.42,245.8699524457302,138.24984034755164
4,352.242,0.1455664187669754,-0.1158415973186492,2.542088031768799,0,4400,-12600,482790036,374421739,2451,463.8,352.48,29.52458399999159,6.757910224330669,288.8196078,242.55882108741508,149.38874270659716
5,352.72,0.0700374990701675,-0.0868269503116607,2.472500801086426,0,4400,-13400,482790841,374420181,2441,466.07,352.98,38.469743999514776,8.735367704265043,291.1092157,234.1710905119704,145.0268818575781
6,353.2,0.1044324710965156,-0.0879634916782379,2.486280679702759,0,4400,-14200,482791371,374419137,2429,467.57,353.48,44.35910399964712,10.060493115492797,292.62882349999995,238.29213652365044,152.25022219464552
7,353.68,0.0743493884801864,-0.0964325070381164,2.4687979221343994,0,4400,-14400,482792154,374417575,2418,469.9,353.98,53.05979999947169,12.043180108566942,294.9784314,-215.57694577999754,-134.28920395619986
8,354.16,0.0749038457870483,-0.1138699501752853,2.4745447635650635,0,4400,-14600,482792673,374416541,2412,471.51,354.48,58.82692799975473,13.355715172390664,296.6080392,239.17301575844806,144.05847380941663
9,354.642,0.0720108896493911,-0.1007149517536163,2.4561004638671875,0,4400,-14800,482793452,374414992,2399,473.88,354.98,67.48317599984944,15.322057102534815,298.9976471,-215.52981136376454,-138.34537710389858
10,355.12,0.038625843822956,-0.0940159559249877,2.440878868103028,0,4400,-15000,482793971,374413964,2393,475.48,355.48,73.25030399934292,16.62708008615923,300.61725490000003,235.37493722534325,142.5921589968059
11,355.6,0.0290705226361751,-0.0746262967586517,2.444772720336914,0,4400,-15200,482794742,374412432,2368,477.97,355.98,81.81765599997789,18.57199470256172,303.12686270000006,-224.09687172208558,-151.72812988307885
12,356.08,0.0440969243645668,-0.0408522449433803,2.4340643882751465,0,4400,-15400,482795259,374411414,2378,479.67,356.48,87.56256000000121,19.864425854706614,304.8464706,236.56767744689583,155.64750140995204
13,356.56,0.043885838240385,-0.0758953243494033,2.4250409603118896,0,4400,-15600,482796040,374409900,2367,482.26,356.98,96.24103199956608,21.7866510840982,307.4560784,-221.1530822980535,-150.36794879925918
14,357.041,0.0755316391587257,-0.0799072086811065,2.422716856002808,0,4400,-15800,482796559,374408894,2357,484.01,357.48,102.00815999984913,23.063952888423387,309.2256863,240.50962346362718,159.1023408275441
15,357.52,0.0467940978705883,-0.1084455698728561,2.423884391784668,0,4400,-16000,482797338,374407385,2365,486.54,358.02,110.66440799994382,24.979981421369608,311.7752941,-219.79972015629167,-156.08582565689653
16,358.0,0.0385756380856037,-0.0694909691810607,2.442425489425659,0,4400,-16200,482797857,374406386,2351,488.27,358.47,116.4315359994373,26.24849809392299,313.524902,245.30362191894494,153.07905662316153
17,358.48,0.0567853674292564,-0.1125932484865188,2.4316442012786865,0,4400,-16400,482798638,374404887,2335,490.79,358.97,125.11000799979172,28.15198487252504,316.0645098,-222.68549955019998,-154.82999157950127
18,358.96,0.0763962641358375,-0.0553565360605716,2.434269428253174,0,4400,-16600,482799155,374403892,2339,492.42,359.47,130.85491199981504,29.41552199135057,317.7141176,248.72780613852538,167.8585415274153
19,359.441,0.0152198811993002,0.0165312550961971,2.381794214248657,0,4400,-16800,482799929,374402402,2337,494.88,359.97,139.45560000005003,31.30772689757189,320.1937255,-231.54282983369222,-152.31310863288596
20,359.92,0.0466715767979621,-0.0146273933351039,2.412330389022827,0,4400,-17000,482800442,374401412,2328,496.57,360.47,145.15605599955393,32.56501160649505,321.9033333,244.71820994328485,170.82782039173702
21,360.4,0.0061385370790958,-0.0506895370781421,2.426368236541748,0,4500,-17200,482801211,374399931,2320,499.12,360.97,153.7011839999292,34.4459334487754,324.47294120000004,247.93363380316595,153.47979301553502
22,360.88,0.007736288011074,-0.0380581207573413,2.390888214111328,0,4400,-17400,482801724,374398952,2308,500.87,361.47,159.4016399994331,35.68935095457525,326.242549,241.40931916712708,158.14354473044494
23,361.36,0.0384710468351841,-0.0649305135011673,2.3983254432678223,0,4400,-17600,482802488,374397495,2306,503.58,361.99,167.89120799994862,37.53994345140151,328.9721569,-232.16573494394876,-162.23945485257093
24,361.842,0.0689397752285003,-0.0487513281404972,2.405585765838623,0,4400,-17800,482803001,374396536,2275,505.53,362.47,173.59166399945252,38.75806547228267,330.9417647,253.05076436323375,175.34546921919164
25,362.321,0.0233591459691524,-0.0335851795971393,2.3965420722961426,0,4400,-18000,482803765,374395123,2243,508.41,362.97,182.08123199996805,40.55293750528651,333.84137250000003,-240.19656599333186,-164.69861934836277
26,362.8,0.0574988350272178,-0.0461773164570331,2.419278621673584,0,4500,-18200,482804275,374394190,2216,510.25,363.47,187.748351999872,41.73813916781514,335.7009804,-241.46115418656728,-154.95330524327855
27,363.28,0.0281535796821117,-0.0594616048038005,2.431574821472168,0,4400,-18400,482805021,374392799,2206,513.05,363.99,196.0379039996292,43.50519314429204,338.5205882,-248.87665350843116,-168.17695505347925
28,363.76,0.0439734123647213,-0.058531355112791,2.442290782928467,0,4400,-18600,482805513,374391871,2184,514.8,364.47,201.5050079995644,44.684112783584695,340.29019609999995,266.2614691622781,169.82977971872512
29,364.242,0.0767300799489021,-0.0506955049932003,2.448463201522827,0,4400,-18800,482806244,374390484,2184,517.33,364.99,209.6278799997424,46.446199772011845,342.83980390000005,-250.80545645634143,-150.2097731545605
30,364.72,0.0949143394827842,-0.0522827766835689,2.4286367893218994,0,4400,-19000,482806730,374389563,2183,518.98,365.47,215.028311999688,47.616310221675725,344.5094118,269.43975403563553,187.83657617629675
31,365.2,0.1244549304246902,-0.0572938211262226,2.4252023696899414,0,4400,-19200,482807460,374388180,2178,521.38,365.97,223.14007199973616,49.3734467185585,346.9290196,-239.49384702549685,-135.5556913490735
32,365.68,0.1114083528518676,-0.0648379772901535,2.4555916786193848,0,4400,-19400,482807946,374387260,2182,522.92,366.49,228.54050399968173,50.5423736907128,348.48862749999995,278.3852834166085,190.08444407748289
33,366.159,0.1623955965042114,-0.0260658003389835,2.450972080230713,0,4400,-19600,482808677,374385876,2185,525.21,366.99,236.6633759998598,52.30091117070822,350.79823530000004,-246.87494593654478,-115.95424360421822
34,366.641,0.119960993528366,-0.000247050076723,2.451883316040039,0,4400,-19800,482809159,374384955,2173,526.7,367.47,242.019359999286,53.47118777282002,352.3078431,279.4996072598863,208.23451178004873
35,367.12,0.1129976734519004,-0.0182568207383155,2.4916818141937256,0,4400,-20000,482809883,374383572,2175,529.03,367.97,250.06444799934457,55.22857328355242,354.657451,-268.9473719039592,-133.00942895813742
36,367.6,0.0711375772953033,0.0390782430768013,2.461111068725586,0,4400,-20200,482810365,374382655,2168,530.52,368.47,255.42043199956024,56.39385598138407,356.16705879999995,279.86535715904046,204.16569025408617
37,368.079,-0.023660808801651,-0.0529248230159282,2.592315196990967,0,4400,-20400,482811090,374381278,2159,532.86,368.97,263.47663199974875,58.14375227942836,358.5266667,-303.88371600132973,-176.1592893409258
38,368.56,0.0013750628568232,-0.0519197098910808,2.590343475341797,0,4400,-20600,482811577,374380369,2165,534.44,369.49,268.88817599982417,59.29896986328834,360.1262745,308.4397774234545,152.37121172082905
39,369.041,0.0186614673584699,-0.0734736025333404,2.603413343429565,0,4400,-20800,482812298,374379001,2152,536.89,369.97,276.89992799949323,61.03755738515096,362.5958824,-305.00167624410903,-164.31892518399292
40,369.52,0.003803202882409,-0.0720555633306503,2.594460248947144,0,4400,-21000,482812777,374378091,2147,538.56,370.47,282.22257599931936,62.19411488285598,364.2854901999999,313.0795039342012,150.75347984438955
41,370.0,-0.0166282281279563,-0.0577168501913547,2.6117043495178223,0,4400,-21200,482813493,374376734,2135,541.02,370.97,290.17876799991825,63.91884930694603,366.765098,-313.7987999856404,-174.98647021716286
42,370.48,0.0769630447030067,-0.0170566514134407,2.597290515899658,0,4400,-21400,482813965,374375835,2129,542.75,371.47,295.42363199962494,65.06150658524946,368.5147059,318.37374261149824,184.77440457854493
43,370.96,0.0446271337568759,0.4637668430805206,2.6236958503723145,0,4400,-21600,482814676,374374487,2115,545.3,371.97,303.3242639995745,66.77492487671537,371.0843137,-304.1076999189116,-65.49138824365743
44,371.443,-0.0891196802258491,0.181540310382843,2.611324071884156,0,4400,-21800,482815147,374373593,2113,546.99,372.47,308.5580159999409,67.91131165032141,372.7939216,290.10981437244516,150.65742680212293
45,371.92,-0.0665445625782013,0.1872802674770355,2.598813533782959,0,4400,-22000,482815853,374372264,2091,549.47,372.97,316.40308800003083,69.60071056902395,375.2935294,-322.3287629118985,-151.4228527691832
46,372.4,-0.0699687078595161,0.2929608225822449,2.5945940017700195,0,4400,-22200,482816318,374371385,2071,551.15,373.47,321.5701679996181,70.71811380060043,376.9931373,259.85383694076955,173.15040242027032
47,372.88,0.0289819948375225,0.360591858625412,2.603867292404175,0,4400,-22400,482817002,374370074,2052,553.75,373.97,329.17077600000937,72.38472208358304,379.6127451,-315.90533625038495,-91.92325591249315
48,373.36,0.0758402347564697,0.3908062577247619,2.588411808013916,0,4400,-22600,482817448,374369202,2039,555.48,374.47,334.12672799949803,73.49327007349635,381.3623529,250.63925881970766,253.23641676585868
49,373.843,0.0185094214975833,0.4097841680049896,2.61857533454895,0,4400,-22800,482818113,374367891,2018,557.9,374.97,341.5162079997907,75.15994965580042,383.8019608,-318.4821172392753,-85.33572372934547
50,374.32,-0.0071099298074841,0.392340213060379,2.646470069885254,0,4400,-23000,482818547,374367023,2010,559.61,375.47,346.3388159993002,76.26346396972299,385.5315686,246.38008687408342,199.49116633201743
51,374.8,0.0215704999864101,0.3598233461380005,2.6416473388671875,0,4400,-23200,482819194,374365728,1993,562.12,375.97,353.52827999962415,77.90988891801025,388.0611765,-328.333601693851,-92.29622667198731
52,375.28,0.0148785756900906,0.330313891172409,2.6230015754699707,0,4400,-23400,482819623,374364877,1977,563.85,376.47,358.2953280000635,78.99186964588624,389.8107843,275.48810916369376,216.58552478305987
53,375.761,-0.0144024873152375,0.2989043891429901,2.6355133056640625,0,4400,-23600,482820266,374363610,1973,566.39,376.97,365.440343999868,80.6028248373077,392.3703922,-336.0461780503464,-115.93415216114268
54,376.243,-0.0282967127859592,0.272132933139801,2.6575710773468018,0,4400,-23800,482820699,374362770,1975,568.13,377.47,370.2518400000372,81.67091264301345,394.13,299.7286126317395,184.16003561271157
55,376.72,0.0097552817314863,0.2622890770435333,2.650131225585937,0,4400,-24000,482821358,374361524,1965,570.61,377.99,377.57464799955073,83.25533673378713,396.6296078,-343.664314966052,-114.7864182996144
56,377.2,-0.0202021859586238,0.2558409571647644,2.6656036376953125,0,4400,-24200,482821801,374360703,1952,572.23,378.47,382.4972639994394,84.29938428147557,398.2692157,310.9243766995913,186.51542384855634
57,377.679,0.0297188088297843,0.2463738918304443,2.671415328979492,0,4400,-24400,482822463,374359478,1946,574.65,378.97,389.8534079993425,85.85724443258677,400.7088235,-350.81985155361554,-109.17541273943642
58,378.161,-0.0419648364186286,0.2538344860076904,2.625609397888184,0,4400,-24600,482822900,374358659,1948,576.23,379.47,394.7093520000311,86.89880533322128,402.3084314,303.0763672666953,188.6207324082367
59,378.645,-0.0694818422198295,0.2555201649665832,2.573500394821167,-100,4400,-24800,482823558,374357428,1951,578.49,379.97,402.0210479994148,88.46438106688083,404.5880392,-1224.4620123084107,-1415.873917317913
60,379.12,-0.1069801896810531,0.2509730756282806,2.5663270950317383,-100,4400,-25000,482823992,374356609,1943,579.99,380.47,406.84365599971386,89.50600290024937,406.1076471,-1101.2084821366839,-1282.2663686863139
61,379.6,0.0263951569795608,0.2535348832607269,2.6299617290496826,0,4400,-25200,482824645,374355371,1954,582.21,380.97,414.0997920000274,91.08056157227868,408.34725490000005,-350.7924459746857,-117.54581689651957
62,380.08,0.08791995793581,0.267321914434433,2.571860313415528,0,4400,-25400,482825083,374354542,1969,583.72,381.47,418.9668480000563,92.1349677035729,409.87686270000006,311.78589871471587,267.71134085142563
63,380.561,0.0129925971850752,0.2552115619182586,2.548680305480957,0,4400,-25600,482825737,374353294,1975,585.95,381.97,426.2340959997101,93.72233794249158,412.12647060000006,-340.400747031417,-132.59945378327055
64,381.043,0.0440970584750175,0.2619699835777282,2.58128023147583,0,4400,-25800,482826176,374352455,1981,587.35,382.47,431.1122639998689,94.78952172404108,413.54607840000006,312.09260908692175,247.8698595317736
65,381.52,0.0573311559855937,0.2885427176952362,2.61488676071167,0,4400,-25900,482826832,374351192,1978,589.46,382.97,438.4017359997824,96.39606060094368,415.67568630000005,-274.4472364250868,-380.401012212355
66,382.0,-0.0249951221048831,0.2880923449993133,2.6570804119110107,0,4400,-26100,482827265,374350343,1985,590.85,383.47,443.2132319999516,97.47600286266322,417.08529410000006,93.42124324996789,516.5795698901089
67,382.479,-0.0582970641553401,0.2657832205295563,2.715252637863159,0,4400,-26300,482827902,374349059,1993,593.26,383.97,450.29157599976656,99.10927258593448,419.514902,-231.2951796976658,-392.83836458712756
68,382.961,-0.108997106552124,0.2626245319843292,2.736011743545532,0,4400,-26500,482828328,374348202,1982,594.77,384.48,455.0252879998163,100.19942870526404,421.0445098,43.37216415681417,482.6535030407634
69,383.445,-0.1292183548212051,0.2548306286334991,2.696025848388672,0,4400,-26700,482828972,374346921,1991,597.1,384.98,462.1814159997507,101.82901341906356,423.3941176,-224.5559099097493,-396.9685297484406
70,383.921,-0.0620058067142963,0.2400536239147186,2.6705682277679443,0,4400,-26900,482829406,374346071,1991,598.77,385.47,467.00402400004975,102.91037068147804,425.0837255,99.02953165522828,512.8003254983192
71,384.4,0.0071985209360718,0.2776897251605987,2.656719207763672,0,4400,-27100,482830073,374344811,1990,600.93,385.98,474.4157279998126,104.5134510942597,427.2633333,-263.1111894327613,-396.9196915777693
72,384.88,0.0125253349542617,0.2960867285728454,2.614469051361084,0,4400,-27300,482830523,374343981,1990,602.59,386.48,479.4161279998207,105.56951791613147,428.94294120000006,124.8758288207622,549.3606059031791
73,385.36,-0.0101443510502576,0.2521802186965942,2.6492743492126465,0,4400,-27500,482831198,374342739,1977,604.99,386.98,486.9167279998328,107.14986008811486,431.362549,-260.1632920000769,-408.5579800299698
74,385.846,0.0213452205061912,0.261549711227417,2.6909396648406982,0,4400,-27700,482831647,374341914,1968,606.63,387.48,491.90601599971103,108.1996420649723,433.0221569,100.74360701213217,520.255845890365
75,386.321,-0.0752706155180931,0.2892475426197052,2.655097007751465,0,4400,-27900,482832318,374340691,1945,609.14,387.97,499.3621679999933,109.75593478864153,435.5517647,-256.0610315504281,-402.6175385612227
76,386.8,-0.1225940883159637,0.2766368091106415,2.550518274307251,0,4400,-28100,482832760,374339886,1923,610.87,388.47,504.2736719997521,110.7803495343824,437.3013725,131.5193906829328,576.0662775860862
77,387.28,-0.1123585850000381,0.2607044279575348,2.5174009799957275,0,4400,-28300,482833415,374338683,1918,613.37,388.98,511.55203199953576,112.31127738882144,439.8209804,-279.34544521584723,-414.8347105739166
78,387.76,0.0003260136581957,0.2541285753250122,2.5040717124938965,0,4400,-28500,482833844,374337888,1902,615.17,389.48,516.3190799999751,113.32300789357078,441.6405882,199.87671046872768,599.5016663016524
79,388.243,0.0837111547589302,0.2728519439697265,2.4476125240325928,0,4400,-28700,482834482,374336697,1890,617.77,389.98,523.4085359999199,114.83872757518483,444.2601961,-327.45801993308055,-410.7371408512099
80,388.72,0.0960703268647193,0.2648166716098785,2.5002329349517822,0,4400,-28900,482834905,374335908,1879,619.48,390.47,528.1089119995801,115.84287759918924,445.9898039,216.14408413376051,597.4781986557712
81,389.2,0.1056888401508331,0.2637615501880646,2.60415267944336,0,4400,-29500,482835541,374334717,1887,621.89,390.98,535.1761440000547,117.35868753338308,448.4194118,-301.0475344129061,-413.5215642386366
82,389.679,0.0943368226289749,0.2818905711174011,2.716101884841919,0,4400,-30300,482835962,374333919,1886,623.44,391.47,539.8542959994552,118.37433259686456,449.98901960000006,-277.6841580521749,-408.21595292843807
83,390.16,0.0970214903354644,0.3389108180999756,2.743696689605713,0,4400,-31000,482836597,374332716,1906,625.73,391.98,546.9104159998,119.90548677346948,452.2986275,349.69758814331936,254.1624720849664
84,390.643,0.0248307026922702,0.3427530527114868,2.744401931762696,0,4400,-31200,482837016,374331907,1899,627.23,392.47,551.5663439997303,120.93516935305033,453.8182353,-399.40643071061396,-93.27577166395204
85,391.12,0.0368490181863307,0.3528807759284973,2.755152463912964,0,4400,-31400,482837615,374330679,1883,629.51,392.98,558.222431999348,122.49806106089372,456.1178431,339.9211559184162,219.38383198615065
86,391.6,0.0126537578180432,0.3479458391666412,2.7577502727508545,0,4400,-31500,482837990,374329838,1877,630.91,393.48,562.3894319998811,123.56831352012088,457.537451,-271.4000133334223,-404.8249888921485
87,392.08,0.0300918258726596,0.3315220475196838,2.746459722518921,0,4400,-31700,482838495,374328532,1865,632.85,393.98,568.0009919999253,125.230077214227,459.4970588,51.24486794670734,541.1730828552213
88,392.56,-0.0601810850203037,0.3366053700447082,2.760021686553955,0,4400,-31900,482838794,374327630,1867,634.01,394.48,571.3234799992745,126.37762736366162,460.6766667,-255.27284873145595,-414.35618676222754
89,393.043,-0.0792934894561767,0.3474571704864502,2.7705814838409424,0,4400,-32100,482839190,374326233,1893,635.6,394.97,575.7238319993763,128.1547110154071,462.2862745,-4.681670669930233,525.2913858579185
90,393.52,-0.1322770565748214,0.3336280286312103,2.746206998825073,0,4400,-32300,482839408,374325289,1885,636.9,395.49,578.1462480000505,129.35537600969917,463.6058824,-244.9359140021171,-417.4996935808876
91,394.0,-0.1811904460191726,0.3015499711036682,2.6620562076568604,0,4400,-32500,482839715,374323830,1914,638.47,395.99,581.557631999649,131.21097694614517,465.1954902,38.90677492738274,547.3744640287471
92,394.479,-0.3639042377471924,0.2231231331825256,2.6560375690460205,0,4400,-32700,482839912,374322833,1945,639.51,396.47,583.7466959999648,132.47896061336326,466.255098,-214.10380321480778,-421.090222631348
93,394.96,-0.3917477428913116,0.0921984165906906,2.6706717014312744,0,4400,-32900,482840204,374321304,1982,641.07,396.98,586.9913999999841,134.42352955026448,467.8347059,95.71910649791927,413.8193015631816
94,395.445,-0.489897221326828,0.0248812567442655,2.5812888145446777,0,4400,-33200,482840401,374320275,1995,642.24,397.48,589.1804639995104,135.7322241993294,469.0243137,-381.71543747420685,-335.19992011738196
95,395.92,-0.5555601716041565,0.0195295177400112,2.423358678817749,0,4400,-33400,482840714,374318708,2041,643.97,397.98,592.658519999888,137.72523805051924,470.7739216,203.6751180691441,-66.0203369970215
96,396.4,-0.624350905418396,0.0501867793500423,2.2498438358306885,0,4400,-33600,482840934,374317661,2062,645.29,398.48,595.1031600000323,139.05694851665336,472.1135294,-334.2987552248744,-361.0550244841896
97,396.88,-0.6585520505905151,0.1122054904699325,2.0781025886535645,0,4400,-33800,482841297,374316070,2092,647.16,398.98,599.1368159997967,141.08074547637298,474.00313729999993,-45.99650763726131,-146.25602428164225
98,397.361,-0.6248350143432617,0.1373443156480789,1.8867071866989136,0,4400,-34000,482841552,374314995,2115,648.39,399.46,601.9703759997486,142.44824306827306,475.2527451,-292.2722511157138,-299.9822679130784
99,397.845,-0.6468230485916138,0.1731115877628326,1.7197273969650269,0,4400,-34200,482841948,374313359,2172,650.08,399.96,606.3707279998505,144.52945885501114,476.9623529,-201.797957723711,-176.62088296439728
100,398.32,-0.6209874153137207,0.1964490264654159,1.5437394380569458,0,4400,-34400,482842220,374312254,2204,651.28,400.46,609.3931919996413,145.9352183002995,478.1819608,-236.47424841199506,-156.95290896935623
101,398.801,-0.6035574078559875,0.2340236157178878,1.3824142217636108,0,4400,-34600,482842649,374310579,2231,652.98,400.96,614.1602399992911,148.06623971931688,479.9015686,-287.9364021001928,-154.94440520017747
102,399.28,-0.6009252667427063,0.2355691343545913,1.2498409748077393,0,4400,-34800,482842943,374309471,2210,654.52,401.48,617.4271679995701,149.47597122528435,481.4611765,-111.68144853113634,135.4841001160344
103,399.761,-0.6221523284912109,0.2270324081182479,1.1097943782806396,0,4400,-35000,482843383,374307818,2198,657.09,401.98,622.3164479998587,151.57917063888726,484.0507843,-358.12142067567027,-139.15606792392484
104,400.243,-0.6001790165901184,0.2222011834383011,0.999962329864502,0,4400,-35200,482843673,374306726,2175,658.97,402.48,625.5389279996183,152.96860768350953,485.9503922,161.4924824011014,625.6159589371432
105,400.72,-0.6247577667236328,0.1883553117513656,0.8487071394920349,0,4400,-35400,482844103,374305103,2140,661.61,402.98,630.3170879993979,155.03371789180756,488.61,-433.84859589358496,-99.9642101744089
106,401.2,-0.6262550354003906,0.1866883337497711,0.7085765600204468,0,4400,-35600,482844387,374304041,2129,663.6,403.46,633.4728959999575,156.38505155768513,490.6196078,1076.485153834319,1908.7765267504274
107,401.679,-0.5695716142654419,0.1730366051197052,0.5711784362792969,-100,4500,-35800,482844824,374302457,2117,666.28,403.97,638.3288399998565,158.40070763865626,493.3192157,-670.5797379494701,778.3826489764198
108,402.161,-0.5769191384315491,0.1558612287044525,0.4183227717876434,0,4400,-36000,482845118,374301406,2122,667.96,404.47,641.595767999346,159.7381648404301,495.01882350000005,1694.0396831400985,1847.1439932402286
109,402.643,-0.5828590393066406,0.1686499118804931,0.2655647099018097,0,4400,-36200,482845567,374299832,2118,670.49,404.97,646.5850560000138,161.74125643764108,497.5684314,-589.308653702769,195.96271565875358
110,403.12,-0.5344281196594238,0.1468009203672409,0.1304355859756469,0,4400,-36400,482845873,374298780,2116,672.12,405.47,649.9853279994824,163.08010402894047,499.2180392,1405.5694693859416,885.9267326898134
111,403.6,-0.3786705136299133,0.1664788722991943,0.0438280999660491,0,4400,-36600,482846341,374297215,2107,674.7,405.97,655.1857439994592,165.0719405783655,501.8176471,-455.8798748190984,182.57393150130568
112,404.082,-0.2724534273147583,0.1516094207763672,-0.0195139963179826,0,4400,-36800,482846651,374296180,2103,676.54,406.47,658.6304639994472,166.38925894281593,503.6772549,802.2968950340819,172.03265980331233
113,404.561,-0.2563693821430206,0.1466185748577118,-0.0639761984348297,0,4500,-37000,482847111,374294639,2088,679.41,406.98,663.7419839999643,168.35063749573166,506.5668627,776.4481283158423,116.43899057759984
114,405.045,-0.2368286848068237,0.1396645158529281,-0.1087949723005294,0,4400,-37200,482847420,374293616,2095,681.35,407.47,667.1755919998225,169.6527565693752,508.5264706,745.033662580167,62.16582286344757
115,405.52,-0.1794870942831039,0.1258386969566345,-0.1519411355257034,0,4400,-37400,482847876,374292081,2078,684.19,407.98,672.2426639998201,171.60657750699585,511.3860784000001,-412.68382149159424,140.26846314323038
116,406.0,-0.1362794190645218,0.1013317704200744,-0.1950753629207611,0,4400,-37600,482848168,374291071,2096,686.31,408.47,675.4873679998394,172.89214079522398,513.5256863,636.7856469090564,-56.931032324296964
117,406.479,-0.1308644264936447,0.092878833413124,-0.2199612706899643,0,4400,-37800,482848624,374289514,2087,688.71,408.97,680.5544399998371,174.87402036685123,515.9452941000001,-428.23437122054537,146.86363984919242
118,406.961,-0.0923003479838371,0.0777609646320343,-0.243625670671463,0,4400,-38000,482848916,374288475,2089,690.32,409.47,683.7991439998564,176.19651108929844,517.5749020000001,594.5075195038667,-103.45363266346351
119,407.445,-0.0823712199926376,0.0839496254920959,-0.2749495506286621,0,4400,-38200,482849335,374286913,2092,692.93,409.97,688.4550719997867,178.18463822192953,520.2045098,-427.78590148006407,143.96039354779347
120,407.92,-0.0495468005537986,0.0729524940252304,-0.3112767934799194,0,4400,-38400,482849606,374285867,2102,694.76,410.47,691.4664239994477,179.51597213036766,522.0541175999999,577.1826092894748,-162.43293758581888
121,408.4,-0.0022926544770598,0.057901058346033,-0.3558922708034515,0,4400,-38600,482850016,374284282,2114,697.34,410.97,696.0223439997884,181.5333756463135,524.6537255000001,-440.6473739312521,144.263267026269
122,408.879,-0.0312924832105636,0.0475812889635562,-0.3417887687683105,0,4400,-38800,482850288,374283228,2118,699.17,411.47,699.0448079995792,182.87494132230827,526.5033332999999,545.8854382390457,-175.33880448918012
123,409.361,0.0072661102749407,0.046349462121725,-0.3378379642963409,0,4400,-39000,482850703,374281641,2108,701.86,411.97,703.6562879997797,184.8949990595952,529.2129412,-457.3922702323074,140.16507336183957
124,409.845,-0.0110697830095887,0.0509750172495842,-0.3534193336963653,0,4400,-39200,482850986,374280582,2104,703.56,412.47,706.8009839994198,186.24303960338816,530.9325489999999,551.2764722781566,-194.59536320135254
125,410.321,-0.0276840440928936,0.0655360296368599,-0.3810975253582001,0,4400,-39400,482851414,374278996,2112,706.1,412.97,711.5569199997293,188.26198505437395,533.4921569,-436.73295825942137,162.77687610664964
126,410.8,-0.1029673367738723,0.0478204227983951,-0.3825972974300384,0,4400,-39600,482851703,374277934,2114,707.73,413.47,714.768287999359,189.61393233563848,535.1417647000001,553.3050166436469,-163.78025084635283
127,411.28,-0.0212812013924121,0.052231065928936,-0.3713656663894653,0,4400,-39800,482852136,374276345,2121,710.18,413.97,719.5797839995282,191.6368087665477,537.6113725,-453.0817082706373,164.65402004282157
128,411.76,0.0292961336672306,0.0554199554026126,-0.3860244750976562,0,4400,-40000,482852426,374275286,2130,711.79,414.47,722.8022639992878,192.98500647818992,539.2409803999999,558.1510150563129,-237.57162421292574
129,412.243,-0.0403502471745014,0.0559318587183952,-0.3906706571578979,-100,4400,-40200,482852869,374273687,2133,714.04,414.98,727.724879999966,195.0207455800465,541.5105882,-7824.833212389324,-2584.187074567746
130,412.72,0.0290191397070884,0.0589398182928562,-0.4146651327610016,0,4400,-40400,482853164,374272613,2149,715.46,415.47,731.0029199995853,196.38810551511352,542.9501961000001,558.6825884849394,-254.07972792262163
131,413.2,0.0072531425394117,0.0538908578455448,-0.4330582618713379,0,4400,-40600,482853612,374270988,2172,717.49,415.97,735.9810959993337,198.45702584736105,544.9998039,-447.81411566796834,172.46281080560124
132,413.68,0.0130059905350208,0.0650753751397132,-0.4158151745796203,0,4400,-40800,482853910,374269904,2162,718.91,416.47,739.2924719993425,199.83718090227725,546.4394118,568.6207002422599,-251.63895356343414
133,414.161,0.0272016115486621,0.074033223092556,-0.4110223948955536,0,4400,-41000,482854349,374268281,2154,721.24,416.98,744.1706399995013,201.9035965058405,548.7890196000001,-440.4786535153606,147.52036654215556
134,414.643,0.01842787489295,0.0902596861124038,-0.4077020287513733,0,4400,-41200,482854637,374267206,2148,722.99,417.47,747.3708959997907,203.2723076029432,550.5586275000001,606.5181508801361,-271.77055671511494
135,415.121,0.0014651673845946,0.1064865291118621,-0.4018652141094208,0,4400,-41400,482855059,374265616,2126,726.03,417.97,752.0601599993211,205.29674583949424,553.6182352999999,-418.6057403149588,140.83662773595807
136,415.6,0.0066199293360114,0.1261434704065323,-0.3946307599544525,0,4400,-41700,482855347,374264562,2110,727.94,418.47,755.2604159996105,206.6388121579117,555.5478431,-147.87984236547268,-475.6308767458285
137,416.08,0.0070568532682955,0.1359834820032119,-0.4061401188373565,0,4400,-41800,482855782,374262986,2104,730.83,418.97,760.0941360000394,208.64561634351188,558.457451,-400.50630759813185,126.26743063130402
138,416.56,0.0042932638898491,0.1419573426246643,-0.3906551897525787,-100,4500,-42000,482856060,374261943,2097,733.05,419.47,763.1832719998198,209.97368959315304,560.6970587999999,-138.36746001167376,-486.8229546522333
139,417.043,0.0213516615331172,0.1406049281358719,-0.3677462637424469,0,4400,-41700,482856506,374260384,2096,735.59,419.98,768.1392239993085,211.95903354258832,563.2566667000001,-134.16497488786658,-514.4377890822246
140,417.52,0.0132082244381308,0.1518552750349044,-0.3604819476604461,100,4500,-39800,482856805,374259344,2098,737.28,420.47,771.4617119994472,213.2834844923776,564.9662744999999,-121.85632626221489,-517.6594673430639
141,418.0,-0.0248317196965217,0.1478748172521591,-0.3576078712940216,0,4400,-40300,482857201,374257776,2110,740.93,420.98,775.862063999549,215.28003683071844,568.6358823999999,312.29060731420384,467.7672435922045
142,418.48,-0.0425109677016735,0.1403524875640869,-0.3592140078544616,0,4500,-40100,482857482,374256721,2114,742.73,421.47,778.984535999719,216.62350289153176,570.4554902,315.4659269735436,485.94038496243775
143,418.961,-0.0326019674539566,0.1576632410287857,-0.3636007308959961,0,4400,-38100,482857918,374255133,2128,744.96,421.97,783.8293679994882,218.64583526844024,572.705098,-105.34236123173308,-489.29914274495627
144,419.443,-0.0449487268924713,0.1629698276519775,-0.3682760596275329,-100,4500,-36900,482858207,374254068,2130,746.46,422.47,787.0407359999075,220.0021296006941,574.2247059,-394.3226072193865,131.475829086322
145,419.92,-0.0541609451174736,0.175748735666275,-0.3632299304008484,-100,4500,-37200,482858641,374252462,2141,748.62,422.97,791.863343999417,222.04742868269173,576.4043137,-88.96979476087617,-484.8481911363312
146,420.4,0.0166829265654087,0.1923040151596069,-0.3560308516025543,-100,4500,-37500,482858926,374251398,2123,750.24,423.47,795.0302639993168,223.40248360760268,578.0439216,826.1112011848087,-344.7824350704902
147,420.88,0.001356738852337,0.1877227276563644,-0.3458833992481231,-100,4500,-37000,482859350,374249798,2118,752.65,423.97,799.7417519998965,225.44017295415588,580.4735294,336.4763998749879,461.05450516966283
148,421.361,-0.0006520240567624,0.2039796113967895,-0.3453039824962616,-100,4400,-37600,482859634,374248735,2114,754.3,424.47,802.8975599996664,226.79400755860104,582.1431372999999,-2870.0567809654585,-1192.4471146048443
149,421.844,-0.0301634669303894,0.2049587517976761,-0.3549638092517853,0,4400,-37900,482860061,374247142,2112,756.64,424.97,807.6423839998461,228.8229023369799,584.5027451,374.5854411148357,491.424700569843
150,422.32,-0.0423486419022083,0.2127426117658615,-0.3823000788688659,0,4500,-39800,482860340,374246087,2110,758.3,425.47,810.7426319997563,230.1665858583889,586.1823529,863.8207515010396,-345.4324989396434
151,422.8,-0.0641955658793449,0.2058863341808319,-0.4068089723587036,0,4500,-43500,482860763,374244509,2100,760.59,425.97,815.4430079994165,232.17646215454687,588.4919608,-93.82484519651196,-484.15765440644043
152,423.28,-0.0237862467765808,0.1778163611888885,-0.4079633057117462,0,4400,-43600,482861042,374243464,2093,762.15,426.47,818.5432559993268,233.50748424785857,590.0715686,788.4041039347368,-343.29362253462875
153,423.76,0.0269208811223506,0.1801049262285232,-0.4111092388629913,-100,4400,-43200,482861461,374241904,2085,764.59,426.97,823.1991840000467,235.4945242590925,592.5311765,-3465.112818225652,-1064.2680926116382
154,424.243,0.0396333448588848,0.1863462775945663,-0.4193992912769317,-100,4400,-42400,482861743,374240863,2097,766.19,427.47,826.332767999557,236.82053657245297,594.1507843,-3417.8596646553087,-1003.5428343083214
155,424.72,0.0224164836108684,0.1797368228435516,-0.3924342095851898,0,4500,-41400,482862175,374239300,2089,768.39,427.97,831.1331519995963,238.8115703840124,596.3703922,812.3584691333554,-373.565033632638
156,425.2,0.0592320524156093,0.1843325346708297,-0.3621928989887237,-100,4400,-42200,482862463,374238263,2072,769.89,428.47,834.3334079998857,240.1325957571877,597.89,-3704.4325152499205,-1393.5494262583168
157,425.679,0.0462904423475265,0.191325843334198,-0.3145813047885895,0,4400,-42700,482862905,374236708,2085,772.1,428.97,839.2449119996445,242.11361437340656,600.1,315.42150231123276,454.7401810125954
158,426.16,0.0539137721061706,0.178121268749237,-0.2684312462806701,0,4400,-43500,482863200,374235675,2083,773.56,429.47,842.5229520000534,243.42966166433345,601.7756863,273.68200911333116,476.37392403343625
159,426.644,0.0354134254157543,0.1717729121446609,-0.2746331989765167,0,4400,-43100,482863648,374234129,2082,775.8,429.97,847.5011279998017,245.39936577747244,604.2313724999999,278.20041278844064,492.7241417226076
160,427.12,0.0023723065387457,0.174351155757904,-0.2633604407310486,0,4000,-42600,482863947,374233102,2066,777.29,430.47,850.8236159999404,246.707870220752,605.9370587999999,-423.7098229580009,82.98743553368458
161,427.6,0.0094488468021154,0.1627056747674942,-0.2667238116264343,0,4200,-42500,482864391,374231564,2068,779.53,430.97,855.757343999959,248.66745746631312,608.3927451,-67.99941869642008,-603.1921602525541
162,428.079,-0.0425348207354545,0.1754011362791061,-0.2895401418209076,-100,4400,-43400,482864681,374230540,2051,781.06,431.47,858.9798239997185,249.97213680684737,610.1384314,-3119.0429538971002,-1572.8767115120831
163,428.561,-0.0644562840461731,0.1708393990993499,-0.2650559544563293,0,4500,-43800,482865094,374228982,2099,783.15,431.97,863.5690799996593,251.9570144607675,612.4441176,857.2991989344679,-207.8884377415563
164,429.043,-0.0983426421880722,0.1950291246175766,-0.3018029928207397,0,4500,-46200,482865345,374227906,2135,784.32,432.47,866.3581919998813,253.3275948162366,613.8298039000001,902.4510246527941,-234.5809856038673
165,429.52,-0.1138828545808792,0.1816085875034332,-0.2721529603004455,0,4400,-47300,482865696,374226218,2235,785.09,432.97,870.2585039996666,255.4774355845749,614.8154902,-24.893119993592563,-504.32659034109
166,430.0,-0.056309524923563,0.1643899828195572,-0.3020212352275848,-100,4400,-48800,482865911,374225033,2308,784.97,433.47,872.6475839999512,256.9864371484688,614.9111765,-3227.7458372737083,-1561.3675966611397
167,430.48,-0.1385906338691711,0.152095228433609,-0.3550069034099579,0,4400,-49500,482866190,374223150,2424,784.16,433.97,875.7478319998614,259.38383338970715,614.3168627,400.76007688793726,653.3543559633431
168,430.96,-0.1451984643936157,0.1654582470655441,-0.3752062320709228,0,4400,-50600,482866340,374221831,2493,783.53,434.47,877.4146319996009,261.0628214328029,613.9025489999999,-418.52862051344005,195.2430155640316
169,431.443,-0.3279984295368194,0.1855832636356353,-0.4099962711334228,0,4500,-51500,482866521,374219785,2553,782.77,434.97,879.4259039994182,263.66684335807867,613.3582352999999,-18.358590628278115,-350.1273121061394
170,431.92,-0.4612865447998047,0.1858482211828231,-0.4589717090129852,0,4500,-51800,482866609,374218398,2580,782.52,435.47,880.4037599997918,265.43186816133465,613.3239216,1010.4314896266561,-171.61488834010154
171,432.399,-0.4784561097621918,0.1321045458316803,-0.5565447807312012,0,4500,-51900,482866717,374216305,2581,782.21,435.98,881.6038559996042,268.0951286796347,613.2296078,-42.541820459736016,-236.91284962567156
172,432.879,-0.4584733843803406,0.1048320978879928,-0.665544331073761,0,4400,-52100,482866783,374214913,2576,781.95,436.47,882.3372479994896,269.8663561582883,613.1852941000001,-98.55333726176505,-196.44360881382738
173,433.361,-0.4441248178482055,0.0989719480276107,-0.7663908004760742,0,4500,-52300,482866879,374212834,2568,781.21,436.98,883.4039999993229,272.5117374161832,612.6609804,-137.81374554070072,-160.15203526846815
174,433.844,-0.4563804268836975,0.1149153858423233,-0.8741759657859802,-100,4400,-52600,482866939,374211452,2570,780.66,437.47,884.0707200000082,274.27021201513503,612.3266667,56385.677982084104,-16166.592398638806
175,434.32,-0.34576216340065,0.1280007511377334,-1.0279209613800049,0,4500,-52800,482867034,374209376,2564,779.37,437.98,885.1263599997117,276.9117940102937,611.2523529,-110.78892862334712,144.06929299234093
176,434.8,-0.2694318890571594,0.1414195001125335,-1.134194016456604,0,4400,-52800,482867096,374207992,2584,778.09,438.47,885.8153039998672,278.6728458623214,610.1880392,426.7812770017279,-389.16811819515056
177,435.281,-0.1643376499414444,0.1597578376531601,-1.164949655532837,-100,4400,-53000,482867196,374205893,2609,775.99,438.98,886.9265039994303,281.3437531711473,608.3037255,-9431.398574707848,5522.901389473268
178,435.76,-0.0664901137351989,0.1964940577745437,-1.1819744110107422,-100,4500,-53000,482867268,374204483,2624,774.49,439.47,887.7265679993053,283.13798148754324,607.0194118,780.1723199379676,-533.9103935394364
179,436.243,0.0176700241863727,0.2217139452695846,-1.160283446311951,0,4500,-53000,482867382,374202353,2643,772.33,439.98,888.9933359998969,285.8484716543988,605.075098,322.9972233382882,-435.1487170322186
180,436.72,0.0551664046943187,0.2443781644105911,-1.1495684385299685,-100,4400,-52500,482867464,374200926,2659,771.05,440.47,889.9045199994913,287.6644322996245,604.0107843,-2429.9554801227027,300.4802049944778
181,437.2,0.0219595767557621,0.2671870589256286,-1.130224585533142,-100,4400,-52200,482867591,374198787,2643,769.25,440.98,891.3157439994023,290.38651724155375,602.4264706,-2184.8447853378834,1208.0614868419
182,437.68,0.0541326515376567,0.272952526807785,-1.1166362762451172,-100,4400,-53100,482867685,374197368,2634,768.1,441.47,892.3602719997655,292.19243019531075,601.4921569,-2238.9024695741646,-39.57213310602967
183,438.16,0.0815905258059501,0.2421349138021469,-1.1399381160736084,0,4500,-53100,482867834,374195248,2620,766.68,441.98,894.0159599993751,294.8905776074607,600.2878430999999,-447.5307343688713,67.33970760617696
184,438.645,0.046646375209093,0.2161196917295456,-1.106930375099182,0,4500,-53200,482867937,374193837,2626,765.81,442.47,895.1604959993278,296.6864208088342,599.6335293999999,-215.90439212465455,68.80175672249388
185,439.12,0.0656893253326416,0.1823534369468689,-1.0777643918991089,0,4500,-53300,482868095,374191738,2603,764.07,442.98,896.9161919993167,299.35797661810903,598.1092157,697.6054016252676,-396.8980860215648
186,439.6,0.0760493353009224,0.1773461252450943,-1.0724927186965942,-100,4400,-53700,482868201,374190345,2599,762.75,443.47,898.0940639996589,301.13097745155744,597.004902,-3810.433992390451,-1005.8789114806905
187,440.08,0.0769894570112228,0.1625836193561554,-1.077114224433899,0,4400,-53700,482868360,374188255,2605,760.63,443.97,899.8608719997776,303.79113609282416,595.1005882,-458.97721965632564,63.14949117264128
188,440.561,0.0532757900655269,0.1722838282585144,-1.070487380027771,0,4400,-54100,482868461,374186855,2615,759.13,444.46,900.9831839994706,305.57302389000256,593.8162745,-442.92944466658525,43.94210856618485
189,441.045,0.0399546064436435,0.1762088537216186,-1.0519366264343262,0,4400,-53500,482868616,374184744,2622,756.69,444.96,902.7055439998594,308.2599020074901,591.5919608,679.9828435180418,-347.5229012138388
190,441.52,0.0434513762593269,0.1760078966617584,-1.012850284576416,0,4400,-54200,482868720,374183336,2634,755.06,445.46,903.861191999942,310.0520224381068,590.1776471,-255.69507847246066,119.41527587062652
191,442.0,0.0868065506219863,0.1995699107646942,-1.003486156463623,0,4400,-54200,482868874,374181209,2648,752.76,445.98,905.5724399994114,312.75928723293543,588.0933333,-266.14149030154005,105.08766607529441
192,442.479,0.0664655417203903,0.2239318937063217,-1.0073554515838623,-100,4400,-55400,482868978,374179786,2656,751.3,446.46,906.728087999494,314.5705178232945,586.8490196,-2339.1201366397077,1040.9811588021287
193,442.96,0.0245846286416053,0.2155909985303878,-1.0011168718338013,0,4400,-55500,482869138,374177654,2659,749.27,446.98,908.5060079997425,317.2842431880392,585.0347059,718.0902361373956,-329.6690996730346
194,443.446,-0.0084118181839585,0.2357313930988311,-1.0109729766845703,-100,4500,-54500,482869252,374176239,2639,748.03,447.46,909.7727759995444,319.08542200557486,584.0103922,-211.97554869232448,68.20657599079374
195,443.92,-0.0316657610237598,0.2421410381793975,-1.0242656469345093,0,4500,-54700,482869431,374174126,2626,746.4,447.98,911.7618239998916,321.7752060861509,582.5960784,-356.2850811851529,-68.88861129976131
196,444.4,-0.0348570384085178,0.2373954057693481,-1.0120909214019775,0,4500,-54900,482869554,374172727,2601,745.51,448.46,913.1285999992832,323.5561501021973,581.9217647,771.0356358047413,-360.2812110106114
197,444.88,-0.006998024880886,0.2403956949710846,-1.015505313873291,0,4500,-55800,482869743,374170659,2565,744.13,448.96,915.2287679993498,326.18883449960555,580.757451,454.10051377119623,-514.9367043626871
198,445.361,-0.0052959313616156,0.2360303699970245,-1.03070068359375,0,4400,-58400,482869873,374169298,2546,743.18,449.48,916.6733279996504,327.92153893824064,580.0231372999999,436.65848774989297,-502.3933241829839
199,445.845,-0.0147527260705828,0.245560422539711,-1.023416519165039,0,4400,-61700,482870073,374167270,2520,741.71,449.98,918.8957279995662,330.5034968524581,578.7688235,-360.2891312112888,-67.18306256042739
200,446.32,0.0121325487270951,0.2464752942323684,-1.0287305116653442,0,4400,-64400,482870207,374165930,2509,740.58,450.48,920.3847359995968,332.2095600377462,577.8545098000001,438.8096744925194,-517.9334958060123
201,446.801,-0.0007308297790586,0.2469436824321746,-1.0199071168899536,0,4400,-67000,482870409,374163921,2500,738.84,450.98,922.6293599997724,334.7674187133076,576.3301961,-205.627926677015,57.09477431188879
202,447.28,0.0461055040359497,0.251058965921402,-1.0098140239715576,0,4400,-69700,482870542,374162588,2501,737.41,451.48,924.1072559996728,336.464600995319,575.1158823999999,-379.47795285042145,-66.97830489509501
203,447.76,0.0159921236336231,0.2581420838832855,-1.0200252532958984,0,4500,-71700,482870725,374160588,2493,735.18,451.98,926.14075199975,339.0108667121862,573.1015686,786.0593270279603,-410.44080962916365
204,448.245,-0.0089982217177748,0.2561695277690887,-1.0134679079055786,0,4500,71200,482870842,374159252,2509,733.62,452.48,927.4408559999416,340.7117338089086,571.7572549,-199.5325950339624,50.42429055213147
205,448.72,-0.0014907391741871,0.2569624483585357,-0.9872509241104126,0,4500,70500,482871009,374157243,2508,731.38,452.98,929.29655999952,343.2693297239955,569.7329412,-345.2665341393645,-101.23948316587845
206,449.2,0.0138877071440219,0.2630448937416076,-0.9921761751174928,0,4500,69700,482871118,374155902,2507,729.95,453.48,930.5077679994622,344.9765040108255,568.5186275000001,-351.1639900726565,-97.26384083437407
207,449.68,-0.013237009756267,0.2592127621173858,-1.005900502204895,-100,4500,69600,482871286,374153885,2515,727.96,453.98,932.37458399996,347.5443311511853,566.7443137,-343.15565514167804,-89.27065036055815
208,450.161,0.0005401135422289,0.2578159272670746,-1.0042189359664917,0,4500,69300,482871400,374152538,2521,726.77,454.48,933.641351999762,349.25922010406094,565.77,-348.87245658635237,-86.25297270819455
209,450.643,0.0009015102405101,0.2633555233478546,-1.00644052028656,-100,4500,68900,482871575,374150517,2515,725.22,454.98,935.5859519995896,351.8322544637604,564.4356863,465.3364872140901,-536.2509221497122
210,451.12,-0.0155938537791371,0.2653799951076507,-1.01809823513031,-100,4500,68800,482871694,374149175,2516,724.32,455.48,936.908280000041,353.54086556374835,563.7513725000001,-341.9871309721111,-83.40334219245648
211,451.6,-0.0008513135835528,0.2646626234054565,-1.017008900642395,-100,4500,68800,482871882,374147169,2501,723.07,455.98,938.9973359999776,356.09500203744403,562.7170588,-347.97469176286427,-79.9117249898288
212,452.079,0.0129407094791531,0.270412415266037,-1.0178693532943726,-100,4500,68800,482872011,374145839,2489,722.33,456.46,940.4307839993588,357.7884857351311,562.1927451,-352.20488458699015,-79.35488697044966
213,452.56,0.0088262949138879,0.2695903778076172,-1.021190166473389,-100,4400,68500,482872199,374143843,2483,721.67,456.98,942.5198399992956,360.3299483068342,561.7484314,-2154.7899244009145,-1428.2965475515407
214,453.045,0.0073468093760311,0.276124507188797,-0.9931111335754396,0,4400,68400,482872322,374142516,2468,721.34,457.47,943.8866159994768,362.0195822094788,561.6341176000001,484.49520269787587,-559.0247124606589
215,453.52,0.0136355077847838,0.2827969193458557,-0.9788390398025512,-100,4400,68100,482872472,374140506,2451,722.91,457.96,945.553416000006,364.5784849463593,563.4198039,-2126.5757449837924,-2290.0961115320547
216,454.0,0.0136217670515179,0.3094609975814819,-0.9852636456489564,0,4400,67600,482872597,374139199,2454,721.9,458.47,946.9424159996572,366.2427253602835,562.6254902,523.8729664350695,-616.2041984537431
217,454.479,-0.0096814129501581,0.3226175606250763,-0.9948326945304872,-100,4400,67500,482872760,374137219,2451,721.65,459.02,948.7536719995056,368.7636454119882,562.5911765,-1728.7763507842458,-1577.2904782216367
218,454.96,-0.0532838441431522,0.2979585826396942,-0.9630787372589112,-100,4400,67900,482872862,374135895,2450,721.94,459.47,949.8870959993286,370.4492869318879,563.0968627000001,-1540.1387185722438,-2179.4364296974463
219,455.445,-0.0322586856782436,0.2907503545284271,-0.9516589641571044,-100,4400,67600,482873023,374133920,2445,721.36,459.97,951.676127999707,372.9638639172365,562.7325490000001,-2039.8595298801256,713.1648112949501
220,455.92,-0.0187716446816921,0.2899246215820312,-0.9758049249649048,-100,4400,67200,482873119,374132591,2459,721.6,460.47,952.7428799995404,374.6558252035975,563.1882353000001,-2018.128803736151,764.6794970361426
221,456.399,0.0062562664970755,0.2911331355571747,-0.9918442368507384,0,4400,66600,482873288,374130611,2460,720.56,460.97,954.6208079993784,377.17689512481047,562.3639215999999,-196.57753785915094,28.957294677331035
222,456.88,0.000620316248387,0.2779386341571808,-0.9910847544670104,0,4400,65400,482873408,374129295,2458,719.37,461.5,955.9542479999596,378.8526176607208,561.3896078,-198.69843265365313,38.68773757939144
223,457.36,-0.0103394677862524,0.2917051315307617,-1.0013158321380615,0,4400,63300,482873586,374127327,2459,717.65,461.99,957.9321839993872,381.35856731991896,559.8852941,834.4044242440224,-419.58016679300084
224,457.845,-0.0254217907786369,0.2972446084022522,-1.036780595779419,0,4400,61600,482873701,374126014,2451,716.62,462.46,959.2100639993192,383.0304452045223,559.0709804,469.9984418242537,-557.7047926686868
225,458.32,-0.0129343764856457,0.2912240922451019,-1.03693950176239,-100,4500,61700,482873872,374124052,2445,714.95,462.97,961.1102159994168,385.5287239232362,557.6166667,459.517618641097,-550.3995329453157
226,458.8,0.0262589193880558,0.2958671450614929,-1.0248149633407593,-100,4500,61300,482873986,374122752,2433,713.89,463.47,962.3769840000084,387.1840788251018,556.7723529,461.7346058416413,-571.3707845551668
227,459.28,-0.0060106292366981,0.2960246503353119,-1.017155408859253,-100,4500,61200,482874151,374120808,2415,712.39,463.96,964.2104639993272,389.6594277909789,555.4880392,-331.1798877346242,-100.5663566597385
228,459.76,0.0013880294281989,0.3045330345630646,-1.0096347332000732,-100,4400,61200,482874265,374119520,2410,711.41,464.47,965.4772319999188,391.2995428774359,554.7237255,-1846.6332805914524,766.4699473251453
229,460.245,0.0031166225671768,0.3008776009082794,-1.016869068145752,-100,4400,61200,482874443,374117598,2398,709.81,464.97,967.4551679993464,393.7470967631948,553.3394117999999,-1859.208014636785,788.588327915898
230,460.72,-0.0141095956787467,0.30054971575737,-1.0131632089614868,0,4400,60800,482874560,374116322,2388,708.78,465.47,968.755271999538,395.37200818759226,552.525098,486.11170848356124,-569.7306561730095
231,461.2,-0.0125513626262545,0.3035777807235718,-1.0100773572921753,-100,4400,60600,482874736,374114421,2380,707.02,465.97,970.7109839994956,397.7928623063205,550.9807843,-1874.1171292233573,773.2115417302208
232,461.68,7.45193101465702e-05,0.3121676445007324,-1.0181934833526611,-100,4400,60500,482874858,374113159,2367,705.85,466.46,972.066647999547,399.4000499065001,550.0264706,-1791.1864329500925,-1222.77817358976
233,462.16,-0.0102296164259314,0.3085944056510925,-1.0213429927825928,0,4400,60300,482875040,374111270,2360,704.12,466.97,974.089031999494,401.80575191893706,548.5121569,-322.6316507782082,-105.15840744185351
234,462.643,-0.0021137637086212,0.3092358708381653,-1.0215929746627808,-100,4400,59900,482875142,374109994,2358,704.46,467.47,975.2224559993168,403.4305379601436,549.0678431,-1796.3600509896755,-1182.0602969617423
235,463.12,-0.0185559801757335,0.3158925771713257,-1.0193482637405396,-100,4400,59600,482875300,374108087,2355,704.91,467.97,976.9781519993056,405.858890649309,549.7335294,-1812.441995311539,755.7362613423934
236,463.6,-0.0100369956344366,0.3226334452629089,-1.026454210281372,-100,4400,59600,482875401,374106815,2337,705.49,468.47,978.1004639997884,407.4786001218896,550.5292157,-1758.7301016158672,746.1885613012809
237,464.079,-0.0136951180174946,0.3310875296592712,-1.0334594249725342,-100,4400,59400,482875567,374104935,2328,705.39,468.99,979.9450560000264,409.8727360588808,550.644902,-1723.2924482816506,737.2971969931659
238,464.56,-0.0290021002292633,0.3341085314750671,-1.0422945022583008,0,4400,59100,482875683,374103686,2322,704.99,469.47,981.2340479992986,411.4633928071002,550.4605882000001,-314.359586051367,-110.88722483116607
239,465.043,-0.0378537625074386,0.334839791059494,-1.044609308242798,-100,4400,58600,482875858,374101825,2318,703.94,469.97,983.1786479999158,413.8335064207367,549.6262745,-1754.9833095703011,757.9843779846011
240,465.52,-0.031386237591505,0.3302899301052093,-1.0597264766693115,0,4200,58500,482875978,374100595,2316,702.67,470.47,984.5120879997074,415.40006574443015,548.5719607999999,926.955057336236,-561.9736519051005
241,465.999,-0.0231507495045661,0.3129106760025024,-1.0778114795684814,-400,4000,58400,482876158,374098754,2295,700.87,470.97,986.5122479993948,417.7448364191544,546.9876471,432.99054146879183,-545.6759954142661
242,466.48,-0.0123565373942255,0.3098278641700744,-1.0905628204345703,-400,4000,58100,482876276,374097527,2301,699.69,471.49,987.8234639997164,419.307581522435,546.0233333000001,878.9728695942913,-572.3704334851901
243,466.96,0.0041690017096698,0.3173004984855652,-1.0985790491104126,-800,4000,57900,482876443,374095683,2295,698.48,471.97,989.6791679992948,421.6560458812874,545.0290196000001,-346.4216916926271,-44.34502472782344
244,467.445,0.0166259966790676,0.3224941194057464,-1.0877392292022705,-800,4000,57500,482876546,374094449,2289,698.27,472.47,990.823704000037,423.22753314944106,545.0347059,-347.18098446693955,-52.20856783715112
245,467.92,0.0257167480885982,0.3273234367370605,-1.0741028785705566,-800,4000,57000,482876716,374092622,2276,697.0,472.97,992.7127440000048,425.55444383217207,543.9803922,-166.2888497986688,-14.449539525202578
246,468.399,0.0306000299751758,0.3249123096466064,-1.0583239793777466,-800,4000,57100,482876834,374091412,2266,695.94,473.47,994.0239599995368,427.0956117908746,543.1360784000001,-343.19112145825403,-72.87080006946626
247,468.88,0.029445357620716,0.3218197226524353,-1.0491564273834229,-800,4000,56900,482877013,374089604,2258,694.34,473.99,996.013007999884,429.3985032689616,541.7517647,885.9630421955719,-550.9955617707295
248,469.36,0.0108469873666763,0.3204168677330017,-1.0463778972625732,-800,4000,56700,482877134,374088405,2250,693.25,474.47,997.3575599998054,430.9257410269738,540.8774510000001,-331.3539616206133,-85.30724867098412
249,469.843,-0.0053263865411281,0.3136533498764038,-1.0441508293151855,-800,3900,56400,482877317,374086611,2243,691.58,474.97,999.3910559998824,433.2109122610645,539.4231373,-163.67376028332106,-1.1285007129331341
250,470.32,-0.0147795239463448,0.3054267764091491,-1.0356146097183228,-800,3700,56000,482877438,374085415,2241,690.43,475.47,1000.7356079998038,434.73436064178975,538.4888235,-164.32122241657282,6.005672624237029
251,470.8,-0.0151147795841097,0.3050222992897033,-1.0299867391586304,-1500,3800,56000,482877617,374083623,2246,688.59,475.97,1002.7246559993614,437.0169761072708,536.8645098000001,-1825.56499712464,789.3039868446086
252,471.28,-0.0105531401932239,0.3085974752902984,-1.039784550666809,-1500,3800,55900,482877736,374082427,2243,687.34,476.47,1004.0469839998128,438.5404256850923,535.8301961,-1734.0783982991986,-910.1743531470554
253,471.76,-0.005091761238873,0.30339315533638,-1.0423208475112915,-1500,3800,55800,482877907,374080631,2250,685.6,476.97,1005.9471359999104,440.8280654538673,534.3058824,-1801.537940112107,807.0851414003886
254,472.245,3.869738429784775e-05,0.3049087524414062,-1.0484352111816406,-1500,3900,55600,482878020,374079435,2248,684.4,477.47,1007.2027919995828,442.3514617447118,533.3215686,-327.0409426740382,-75.94058003479405
255,472.72,0.009084497578442,0.3038030862808227,-1.0475678443908691,-1500,4100,55200,482878184,374077641,2234,682.97,477.97,1009.0251599995612,444.63650165582845,532.1072549,829.8385971476813,-493.7626492509672
256,473.201,-0.0109322750940918,0.2972040474414825,-1.046671986579895,-1500,4300,55000,482878289,374076441,2237,682.64,478.47,1010.1919199997736,446.1649056154571,531.9929412,817.9051821460637,-472.49818737310807
257,473.679,-0.0362978726625442,0.2978425025939941,-1.0583477020263672,-1500,4500,53700,482878450,374074651,2226,681.59,479.0,1011.9809519993624,448.4448523108627,531.1586275,-149.6288633220578,3.353478124539046
258,474.16,-0.049827940762043,0.292547732591629,-1.0850491523742676,-1500,4500,52200,482878561,374073465,2220,680.63,479.47,1013.2143839995643,449.9555473897096,530.4143137,-318.2538327138463,-54.44942761966767
259,474.643,-0.0176933370530605,0.2977640628814697,-1.0958483219146729,-1500,4500,51800,482878723,374071691,2209,679.09,479.97,1015.014527999283,452.2151848657543,529.09,-332.2445368352186,-39.71659665451756
260,475.12,-0.0074200835078954,0.3013089001178741,-1.1017024517059326,-1500,4500,51900,482878828,374070521,2190,678.0,480.47,1016.1812879994956,453.7054624434493,528.2156863,382.6217477902997,-500.58790905563905
261,475.599,0.0049544754438102,0.3016754388809204,-1.0952203273773191,-1100,4400,52100,482878960,374068743,2207,677.95,480.97,1017.6480720000558,455.96981240787926,528.3813725,-1764.1614805410434,890.5655979260191
262,476.079,0.037955418229103,0.3035107851028442,-1.0885224342346191,-400,4400,52100,482879050,374067551,2214,677.6,481.5,1018.6481519998996,457.48790027927737,528.2470588,832.2862680046965,-560.5010046984397
263,476.561,0.0340062119066715,0.302722305059433,-1.0797739028930664,-900,4400,52200,482879187,374065767,2212,676.39,481.98,1020.17049599953,459.7599853263353,527.2527451,-1678.0316743332744,831.9015640596002
264,477.043,0.0358281359076499,0.3235353529453277,-1.0774325132369995,-800,4400,52100,482879282,374064576,2226,675.31,482.53,1021.226136000023,461.2768912535742,526.3884314,873.5002219455737,-584.6580398905921
265,477.52,0.0230776704847812,0.3157749772071838,-1.0645543336868286,-800,4400,51600,482879414,374062780,2223,674.44,482.97,1022.6929199997936,463.5642081937509,525.7341176,414.6455851364386,-542.9678089627554
266,478.0,-0.0021377806551754,0.3082589209079742,-1.039159059524536,-900,4400,51700,482879505,374061583,2228,673.92,483.47,1023.7041119997672,465.0887143736109,525.4298039,-1725.7899289963805,-895.9153833634424
267,478.479,-0.0024267653934657,0.3167881369590759,-1.039561152458191,-400,4400,51100,482879657,374059799,2226,672.6,484.01,1025.3931359997664,467.3610744810137,524.3254902,-314.7216544912068,-89.47946842364601
268,478.96,-0.0258257165551185,0.3183301091194153,-1.05914568901062,-400,4200,50700,482879764,374058613,2220,671.85,484.47,1026.582119999449,468.871831453555,523.7911765,-309.65207124973995,-82.16407998630835
269,479.445,-0.0325482264161109,0.3227842450141907,-1.0616518259048462,-400,4000,50700,482879932,374056850,2218,670.53,484.98,1028.448935999947,471.11773136261326,522.6868627,-305.6510238834202,-84.88453295704132
270,479.92,-0.029137372970581,0.3224056661128998,-1.057449221611023,-100,4000,50500,482880023,374055672,2201,669.84,485.47,1029.4601279999206,472.61810361357146,522.2125490000001,-1589.9313988825422,-667.4850133583855
271,480.399,-0.03672656416893,0.3241054713726043,-1.0599751472473145,-100,4000,50200,482880106,374053910,2163,669.94,485.97,1030.3824239996447,474.8615453975733,522.5282353,-1726.0168216329607,779.7581517923323
272,480.879,-0.0203366391360759,0.325136661529541,-1.0703191757202148,0,4000,49900,482880127,374052763,2123,669.94,486.5,1030.615776000003,476.3214767238688,522.7439216,-312.66949999898776,-76.26001045845956
273,481.361,-0.0064276456832885,0.3196322321891784,-1.0792763233184814,0,4000,49800,482880097,374051078,2053,670.17,486.97,1030.282416000055,478.46531017217615,523.1896078,-147.67955284521543,-13.974914453534886
274,481.844,-0.0143378963693976,0.3080881237983703,-1.0795456171035769,-100,4000,49800,482880041,374049989,2016,670.24,487.47,1029.6601439998892,479.8503159810016,523.4752941,-1764.6475759123375,851.3728341384225
275,482.32,-0.0170214213430881,0.3097245395183563,-1.0607048273086548,0,3500,49500,482879906,374048391,1957,670.88,487.97,1028.1600239997288,481.8818959784011,524.3309804,837.2782586729916,-505.52287926560166
276,482.8,0.0011862912215292,0.2957343757152557,-1.0579968690872192,0,3500,49100,482879800,374047352,1932,671.16,488.47,1026.9821519993866,483.2025288025612,524.8266667,805.2891405896149,-483.90383179480295
277,483.283,-0.123736098408699,0.3063275516033172,-1.0633176565170288,-100,3500,48800,482879622,374045836,1899,671.36,488.97,1025.004215999959,485.12909989982063,525.2423529,845.4480401762205,-464.3032198366366
278,483.76,-0.1875488758087158,0.3156050443649292,-1.0704392194747925,0,3500,48500,482879493,374044839,1873,671.4,489.47,1023.570767999788,486.3959255243656,525.4980392,-241.02039655037825,-120.81905308867344
279,484.243,-0.2375835925340652,0.3006328344345093,-1.1425600051879885,-100,3500,48400,482879291,374043364,1859,671.31,489.97,1021.3261439996126,488.2699328222406,525.6237255,843.9757746338067,-518.2784550407671
280,484.721,-0.2690942287445068,0.2793017327785492,-1.2354261875152588,0,3500,48400,482879154,374042388,1860,671.26,490.46,1019.803799999982,489.5098918257849,525.7894117999999,12.03790538201721,-99.76210781012007
281,485.199,-0.2637403309345245,0.2448327243328094,-1.3168374300003052,-100,3500,48200,482878949,374040928,1861,671.26,490.98,1017.5258399994168,491.364728380231,526.005098,-302.2546986039046,52.59992002455769
282,485.68,-0.2302542477846145,0.2183896005153656,-1.394009351730347,300,3300,47900,482878815,374039955,1851,671.24,491.48,1016.0368319993864,492.6008888752927,526.2007843,47.99380170817806,-135.37870119370254
283,486.161,-0.1683618575334549,0.2069557458162307,-1.4579589366912842,800,3300,47300,482878617,374038499,1856,671.27,491.98,1013.8366559997304,494.4507019301668,526.4464706,-392.5142839064276,218.1621214240297
284,486.643,-0.1120981350541114,0.2008202373981475,-1.5069409608840942,0,4200,46500,482878488,374037531,1843,671.24,492.46,1012.4032079995596,495.6805499882332,526.6321569,665.1800104027865,-713.1482332805622
